{
    "status": 1,
    "cafes": [
        {
            "id": "00371f90-ab6b-46a9-95cf-1641495d47ab",
            "name": "Caffeine Pit \u5496\u5561\u56e0\u5b50",
            "score": 28,
            "latitude": 24.140991,
            "longitude": 120.654954,
            "type": "normal",
            "attr": {
                "is_starred": false,
                "is_donated": false,
                "is_friendly": false
            },
            "qualified": true,
            "isGoodForWorking": false
        },
        {
            "id": "004c4a03-ca13-4eaa-8c67-c4199ff374df",
            "name": "\u7aa9\u67e2\u5496\u5561",
            "score": 27,
            "latitude": 24.167773,
            "longitude": 120.6420394,
            "type": "normal",
            "attr": {
                "is_starred": false,
                "is_donated": false,
                "is_friendly": false
            },
            "qualified": true,
            "isGoodForWorking": true
        },
        {
            "id": "02099240-5fc8-45a1-a042-071aea5b27df",
            "name": "Michaelis\u57f7\u4e8b\u55ab\u8336",
            "score": 25,
            "latitude": 24.14983,
            "longitude": 120.676939,
            "type": "normal",
            "attr": {
                "is_starred": false,
                "is_donated": false,
                "is_friendly": false
            },
            "qualified": true,
            "isGoodForWorking": true
        },
        {
            "id": "02a10fe6-b7f6-4d91-8472-c57fcbafa0df",
            "name": "Cheers Cafe",
            "score": 28,
            "latitude": 24.1374047,
            "longitude": 120.6231988,
            "type": "normal",
            "attr": {
                "is_starred": false,
                "is_donated": false,
                "is_friendly": false
            },
            "qualified": true,
            "isGoodForWorking": false
        },
        {
            "id": "040ae529-e2c0-4d22-bbd4-350cbcbaa4e2",
            "name": "\u83ef\u6cf0\u5496\u5561",
            "score": 28,
            "latitude": 24.1399654,
            "longitude": 120.6781403,
            "type": "normal",
            "attr": {
                "is_starred": false,
                "is_donated": false,
                "is_friendly": false
            },
            "qualified": true,
            "isGoodForWorking": false
        },
        {
            "id": "0452e12c-7af0-46ff-a2eb-5ae8861afe3c",
            "name": "Caf\u00e9 LuLu \u81ea\u5bb6\u70d8\u7119\u4efb\u6027\u5496\u5561\u9928",
            "score": 30,
            "latitude": 24.1478779,
            "longitude": 120.6524924,
            "type": "normal",
            "attr": {
                "is_starred": false,
                "is_donated": false,
                "is_friendly": false
            },
            "qualified": true,
            "isGoodForWorking": true
        },
        {
            "id": "05482de3-516c-4f50-8a99-2dc8c6ac81e0",
            "name": "\u6e05\u6c34\u6563\u6b65",
            "score": 28.5,
            "latitude": 24.2698911,
            "longitude": 120.5769881,
            "type": "normal",
            "attr": {
                "is_starred": false,
                "is_donated": false,
                "is_friendly": false
            },
            "qualified": true,
            "isGoodForWorking": false
        },
        {
            "id": "06a67809-1b63-444e-b6c1-364d8fc8a060",
            "name": "\u76ee\u89ba\u5496\u5561 urban",
            "score": 22,
            "latitude": 24.1582763,
            "longitude": 120.6486754,
            "type": "normal",
            "attr": {
                "is_starred": false,
                "is_donated": false,
                "is_friendly": false
            },
            "qualified": true,
            "isGoodForWorking": true
        },
        {
            "id": "06fac9b8-44ab-415c-9f3e-ac689102260b",
            "name": "\u9ed1\u6c34\u7cbe\u54c1\u5496\u5561 Black Water Coffee Roaster",
            "score": 19,
            "latitude": 24.1756553,
            "longitude": 120.6858952,
            "type": "normal",
            "attr": {
                "is_starred": false,
                "is_donated": false,
                "is_friendly": false
            },
            "qualified": true,
            "isGoodForWorking": false
        },
        {
            "id": "078bc07e-2a5d-4a02-9288-ac0923be0531",
            "name": "Toyohara",
            "score": 22,
            "latitude": 24.252148,
            "longitude": 120.715883,
            "type": "normal",
            "attr": {
                "is_starred": false,
                "is_donated": false,
                "is_friendly": false
            },
            "qualified": true,
            "isGoodForWorking": true
        },
        {
            "id": "07b39ba4-74ca-42b8-8395-b6c447b104f1",
            "name": "\u6668\u7ffc\u5496\u5561 ",
            "score": 0,
            "latitude": 24.2711656,
            "longitude": 120.5780289,
            "type": "normal",
            "attr": {
                "is_starred": false,
                "is_donated": false,
                "is_friendly": false
            },
            "qualified": true,
            "isGoodForWorking": false
        },
        {
            "id": "08276825-558c-47f6-939b-4de0384a1d54",
            "name": "\u8452 \u756b\u4e00\u676f\u5496\u5561",
            "score": 27,
            "latitude": 24.1602176,
            "longitude": 120.7098658,
            "type": "normal",
            "attr": {
                "is_starred": false,
                "is_donated": false,
                "is_friendly": false
            },
            "qualified": true,
            "isGoodForWorking": false
        },
        {
            "id": "0932234d-cc7a-41b7-9b37-23e4c0c92aee",
            "name": "Match Neverland\uff08\u9ed8\u5951\u5496\u5561\u4e8c\u865f\u5e97\uff09",
            "score": 29,
            "latitude": 24.1525196,
            "longitude": 120.6557625,
            "type": "normal",
            "attr": {
                "is_starred": true,
                "is_donated": false,
                "is_friendly": false
            },
            "qualified": true,
            "isGoodForWorking": true
        },
        {
            "id": "0ab312af-bfe5-44d5-a659-ebf9824c1afe",
            "name": "Mh\u5496\u5561",
            "score": 25.5,
            "latitude": 24.171551,
            "longitude": 120.694443,
            "type": "normal",
            "attr": {
                "is_starred": false,
                "is_donated": false,
                "is_friendly": false
            },
            "qualified": true,
            "isGoodForWorking": true
        },
        {
            "id": "0b7d7cd0-cda1-42e5-ba82-646cbed3e5ba",
            "name": "\u9435\u6728 Ironwood",
            "score": 29,
            "latitude": 24.1809779,
            "longitude": 120.5913468,
            "type": "normal",
            "attr": {
                "is_starred": false,
                "is_donated": false,
                "is_friendly": false
            },
            "qualified": true,
            "isGoodForWorking": true
        },
        {
            "id": "0b846b1b-606f-4cdd-a770-5b19d23e9dee",
            "name": "\u62fe\u5e74\u5496\u5561Coffee Decade ",
            "score": 29,
            "latitude": 24.1464905,
            "longitude": 120.6582395,
            "type": "normal",
            "attr": {
                "is_starred": true,
                "is_donated": false,
                "is_friendly": false
            },
            "qualified": true,
            "isGoodForWorking": true
        },
        {
            "id": "0c7cb15d-762f-4435-89be-c34b947b1dba",
            "name": "\u6a02\u5561\u6a02\u838a\u5712\u5496\u5561",
            "score": 30,
            "latitude": 24.1545215,
            "longitude": 120.6590822,
            "type": "normal",
            "attr": {
                "is_starred": false,
                "is_donated": false,
                "is_friendly": false
            },
            "qualified": true,
            "isGoodForWorking": true
        },
        {
            "id": "0c88cba7-dba7-4dcb-8980-8886a79513dd",
            "name": "tutti\u7763\u918d\u5496\u5561",
            "score": 24,
            "latitude": 24.1422136,
            "longitude": 120.6779515,
            "type": "normal",
            "attr": {
                "is_starred": false,
                "is_donated": false,
                "is_friendly": false
            },
            "qualified": true,
            "isGoodForWorking": false
        },
        {
            "id": "0d674e6a-8cac-4a7a-8d2a-3b271453ab55",
            "name": "Zeller Coffee",
            "score": 27,
            "latitude": 24.1489536,
            "longitude": 120.6514507,
            "type": "normal",
            "attr": {
                "is_starred": false,
                "is_donated": false,
                "is_friendly": false
            },
            "qualified": true,
            "isGoodForWorking": false
        },
        {
            "id": "0e7da749-fe56-4445-b0d3-46febac45a72",
            "name": "Yasumi Cafe",
            "score": 23.5,
            "latitude": 24.1223301,
            "longitude": 120.6613155,
            "type": "normal",
            "attr": {
                "is_starred": false,
                "is_donated": false,
                "is_friendly": false
            },
            "qualified": true,
            "isGoodForWorking": true
        },
        {
            "id": "0eccd41d-b0f7-441d-a038-a8d2b35e75af",
            "name": "\u98df\u3044\u3057\u3093\u574a",
            "score": 23,
            "latitude": 24.1231888,
            "longitude": 120.6708065,
            "type": "normal",
            "attr": {
                "is_starred": false,
                "is_donated": false,
                "is_friendly": false
            },
            "qualified": true,
            "isGoodForWorking": true
        },
        {
            "id": "0ed5307f-dd4d-42f6-ade1-27fbd6806213",
            "name": "\u8449\u6842\u82f1\u5496\u5561",
            "score": 0,
            "latitude": 24.1520924,
            "longitude": 120.6537075,
            "type": "normal",
            "attr": {
                "is_starred": false,
                "is_donated": false,
                "is_friendly": false
            },
            "qualified": true,
            "isGoodForWorking": false
        },
        {
            "id": "128de46e-1c40-4d8b-b3cd-43e250fb1cf7",
            "name": "\u9e7f\u9ede\u5496\u5561 \u9010\u65e5",
            "score": 29,
            "latitude": 24.252963,
            "longitude": 120.714609,
            "type": "normal",
            "attr": {
                "is_starred": false,
                "is_donated": false,
                "is_friendly": false
            },
            "qualified": true,
            "isGoodForWorking": false
        },
        {
            "id": "1365d049-adbf-4c50-86e5-7648d24c5a1b",
            "name": "5\u6625\u5496\u5561",
            "score": 28,
            "latitude": 24.1397087,
            "longitude": 120.6582906,
            "type": "normal",
            "attr": {
                "is_starred": false,
                "is_donated": false,
                "is_friendly": false
            },
            "qualified": true,
            "isGoodForWorking": true
        },
        {
            "id": "14778446-de53-410c-9b7d-726a9c3da064",
            "name": "85\u5ea6C(\u6e05\u6c34\u5e97)",
            "score": 0,
            "latitude": 24.271712,
            "longitude": 120.57627,
            "type": "normal",
            "attr": {
                "is_starred": false,
                "is_donated": false,
                "is_friendly": false
            },
            "qualified": true,
            "isGoodForWorking": false
        },
        {
            "id": "14df058b-241d-4dbf-8cef-8404851aa859",
            "name": "\u8278\u7530 \u7a7a\u9593",
            "score": 30,
            "latitude": 24.1569303,
            "longitude": 120.6742288,
            "type": "normal",
            "attr": {
                "is_starred": true,
                "is_donated": false,
                "is_friendly": false
            },
            "qualified": true,
            "isGoodForWorking": true
        },
        {
            "id": "154617e4-5e8c-4382-9274-ca26165d50f4",
            "name": "\u624b\u6a02 S.L CAF'E",
            "score": 22,
            "latitude": 24.1917232,
            "longitude": 120.6170007,
            "type": "normal",
            "attr": {
                "is_starred": false,
                "is_donated": false,
                "is_friendly": false
            },
            "qualified": true,
            "isGoodForWorking": false
        },
        {
            "id": "1549e606-7a10-4ed0-a0c7-0b95dc5dd126",
            "name": "THETA\u5fb7\u5e0c\u9054\u5496\u5561",
            "score": 26,
            "latitude": 24.1453785,
            "longitude": 120.6630514,
            "type": "normal",
            "attr": {
                "is_starred": false,
                "is_donated": false,
                "is_friendly": false
            },
            "qualified": true,
            "isGoodForWorking": false
        },
        {
            "id": "173314a1-3b51-44ac-a0a1-043f2fa1d805",
            "name": "\u627e\u8def\u5496\u5561",
            "score": 23,
            "latitude": 24.161678,
            "longitude": 120.681928,
            "type": "normal",
            "attr": {
                "is_starred": false,
                "is_donated": false,
                "is_friendly": false
            },
            "qualified": true,
            "isGoodForWorking": false
        },
        {
            "id": "188b5789-59fc-4c8f-835e-374196ccc559",
            "name": "\u897f\u6210\u73c8\u7432",
            "score": 25,
            "latitude": 24.1459593,
            "longitude": 120.6523429,
            "type": "normal",
            "attr": {
                "is_starred": false,
                "is_donated": false,
                "is_friendly": false
            },
            "qualified": true,
            "isGoodForWorking": true
        },
        {
            "id": "18c941f9-29a7-42e6-b577-6e740d0439ae",
            "name": "\u6709\u672c\u751f\u6d3b\u574a",
            "score": 29,
            "latitude": 24.175294,
            "longitude": 120.641444,
            "type": "normal",
            "attr": {
                "is_starred": false,
                "is_donated": false,
                "is_friendly": false
            },
            "qualified": true,
            "isGoodForWorking": false
        },
        {
            "id": "18ffeb9d-2d64-48a8-85d2-98ffd2fd8205",
            "name": "  Right Cafe",
            "score": 25,
            "latitude": 24.139025,
            "longitude": 120.6620175,
            "type": "normal",
            "attr": {
                "is_starred": false,
                "is_donated": false,
                "is_friendly": false
            },
            "qualified": true,
            "isGoodForWorking": false
        },
        {
            "id": "19678fd1-e68e-4e42-b81d-255a5ec0d019",
            "name": "SMILE C\u00d8FFEE \u61b2\u8ce3\u5496\u5561 (\u71b1\u6cb3\u5e97)",
            "score": 21,
            "latitude": 24.171481,
            "longitude": 120.687754,
            "type": "normal",
            "attr": {
                "is_starred": false,
                "is_donated": false,
                "is_friendly": false
            },
            "qualified": true,
            "isGoodForWorking": false
        },
        {
            "id": "1aa44297-3aa1-402f-9095-b8e61574be65",
            "name": "CHDC CH\u039bP Deco & Cuisine",
            "score": 23,
            "latitude": 24.187884,
            "longitude": 120.591852,
            "type": "normal",
            "attr": {
                "is_starred": false,
                "is_donated": false,
                "is_friendly": false
            },
            "qualified": true,
            "isGoodForWorking": false
        },
        {
            "id": "1aa5b6d1-f915-4db6-8be5-08a5a466b72f",
            "name": "coffee VA",
            "score": 22,
            "latitude": 24.0594644,
            "longitude": 120.6994267,
            "type": "normal",
            "attr": {
                "is_starred": false,
                "is_donated": false,
                "is_friendly": false
            },
            "qualified": true,
            "isGoodForWorking": false
        },
        {
            "id": "1ab12373-e014-4fa6-8eae-0a2bdce4159f",
            "name": "Art a New",
            "score": 30,
            "latitude": 24.155114,
            "longitude": 120.657708,
            "type": "normal",
            "attr": {
                "is_starred": false,
                "is_donated": false,
                "is_friendly": false
            },
            "qualified": true,
            "isGoodForWorking": true
        },
        {
            "id": "1ad9ecca-1cd3-4392-88d1-edd2e8e95aa8",
            "name": "\u4e00\u74e3\u5fc3\u9999",
            "score": 29,
            "latitude": 24.3475731,
            "longitude": 120.6219188,
            "type": "normal",
            "attr": {
                "is_starred": false,
                "is_donated": false,
                "is_friendly": false
            },
            "qualified": true,
            "isGoodForWorking": false
        },
        {
            "id": "1b2a2f3e-0a57-4dc1-b0e8-2c1ee8c683f3",
            "name": "\u9999\u7e54\u5496\u5561\u540e\u91cc\u5e97",
            "score": 30,
            "latitude": 24.3034571,
            "longitude": 120.7138137,
            "type": "normal",
            "attr": {
                "is_starred": false,
                "is_donated": false,
                "is_friendly": false
            },
            "qualified": true,
            "isGoodForWorking": false
        },
        {
            "id": "1b4551de-d212-4639-ae95-5e9f726612ef",
            "name": "\u574a\u547c\u5496\u5561 Fun hoster",
            "score": 0,
            "latitude": 24.1499771,
            "longitude": 120.6675158,
            "type": "normal",
            "attr": {
                "is_starred": false,
                "is_donated": false,
                "is_friendly": false
            },
            "qualified": true,
            "isGoodForWorking": false
        },
        {
            "id": "1b6057eb-fc7f-4718-9236-3674639d9470",
            "name": "158\u5496\u5561\u9999",
            "score": 30,
            "latitude": 24.1309523,
            "longitude": 120.7415631,
            "type": "normal",
            "attr": {
                "is_starred": false,
                "is_donated": false,
                "is_friendly": false
            },
            "qualified": true,
            "isGoodForWorking": false
        },
        {
            "id": "1c6edabb-26ce-4d3d-aeea-23a3256687c6",
            "name": "\u9ed1\u6c83\u5496\u5561-\u9ad8\u5de5\u5e97",
            "score": 25,
            "latitude": 24.1143536,
            "longitude": 120.6673653,
            "type": "normal",
            "attr": {
                "is_starred": false,
                "is_donated": false,
                "is_friendly": false
            },
            "qualified": true,
            "isGoodForWorking": false
        },
        {
            "id": "1d4357e4-170c-4ff9-8fe6-e158c5f0406a",
            "name": "\u65c5\u6c90\u8c46\u884c",
            "score": 30,
            "latitude": 24.174541,
            "longitude": 120.676515,
            "type": "normal",
            "attr": {
                "is_starred": false,
                "is_donated": false,
                "is_friendly": false
            },
            "qualified": true,
            "isGoodForWorking": true
        },
        {
            "id": "1d795730-565c-4205-a2c4-a8ea643d510e",
            "name": "\u5c71\u65f6\u4f5cSence Project",
            "score": 19,
            "latitude": 24.1334405,
            "longitude": 120.6816622,
            "type": "normal",
            "attr": {
                "is_starred": false,
                "is_donated": false,
                "is_friendly": false
            },
            "qualified": true,
            "isGoodForWorking": false
        },
        {
            "id": "1d9e7ff2-b0fc-4fa1-b264-cb586e193621",
            "name": "82mm cafe",
            "score": 26.5,
            "latitude": 24.1478139,
            "longitude": 120.6835092,
            "type": "normal",
            "attr": {
                "is_starred": false,
                "is_donated": false,
                "is_friendly": false
            },
            "qualified": true,
            "isGoodForWorking": true
        },
        {
            "id": "1ded8411-cb96-4988-9c77-7bb33da72f29",
            "name": "\u53bb\u5316\u599d\u5ba4\u5427 go to the toilet",
            "score": 30,
            "latitude": 24.1342421,
            "longitude": 120.6838056,
            "type": "normal",
            "attr": {
                "is_starred": false,
                "is_donated": false,
                "is_friendly": false
            },
            "qualified": true,
            "isGoodForWorking": false
        },
        {
            "id": "20dae26f-3af1-4b2e-98ed-d6476a3c9426",
            "name": "\u624b\u6a02\u5496\u5561",
            "score": 23,
            "latitude": 24.1861128,
            "longitude": 120.6145941,
            "type": "normal",
            "attr": {
                "is_starred": false,
                "is_donated": false,
                "is_friendly": false
            },
            "qualified": true,
            "isGoodForWorking": true
        },
        {
            "id": "20e6171b-6454-446e-b3aa-b3db89e73a29",
            "name": "\u53f0\u7063\u60e0\u84c0\u5496\u5561",
            "score": 27.5,
            "latitude": 24.155914,
            "longitude": 120.660695,
            "type": "normal",
            "attr": {
                "is_starred": false,
                "is_donated": false,
                "is_friendly": false
            },
            "qualified": true,
            "isGoodForWorking": false
        },
        {
            "id": "229bf6fe-59df-46ad-a8c1-d7993b1c3c32",
            "name": "Modism Caf\u00e9 \u6469\u5fb7\u5e74\u4ee3",
            "score": 29.5,
            "latitude": 24.1475527,
            "longitude": 120.6812678,
            "type": "normal",
            "attr": {
                "is_starred": false,
                "is_donated": false,
                "is_friendly": false
            },
            "qualified": true,
            "isGoodForWorking": true
        },
        {
            "id": "22da83e9-00f2-4322-95e8-dab492f3df3a",
            "name": "\u52c1\u9999\u8077\u4eba\u7119\u714e\u5496\u5561",
            "score": 29,
            "latitude": 24.2408351,
            "longitude": 120.6303211,
            "type": "normal",
            "attr": {
                "is_starred": false,
                "is_donated": false,
                "is_friendly": false
            },
            "qualified": true,
            "isGoodForWorking": false
        },
        {
            "id": "22f7377b-9d50-4802-8157-ccd2cc5377dd",
            "name": "Kusabi+",
            "score": 10,
            "latitude": 24.15515,
            "longitude": 120.6740405,
            "type": "normal",
            "attr": {
                "is_starred": false,
                "is_donated": false,
                "is_friendly": false
            },
            "qualified": true,
            "isGoodForWorking": false
        },
        {
            "id": "23786a24-1106-440b-b8f8-4507cdf7b0b5",
            "name": "\u9ed1\u6f6e",
            "score": 28.5,
            "latitude": 24.1813896,
            "longitude": 120.5896119,
            "type": "normal",
            "attr": {
                "is_starred": false,
                "is_donated": false,
                "is_friendly": false
            },
            "qualified": true,
            "isGoodForWorking": true
        },
        {
            "id": "249cd868-cd7b-48f5-a527-844ed5fd0459",
            "name": "\u65e5\u9752\u5496\u5561\u5e97",
            "score": 0,
            "latitude": 24.242799,
            "longitude": 120.726836,
            "type": "normal",
            "attr": {
                "is_starred": false,
                "is_donated": false,
                "is_friendly": false
            },
            "qualified": true,
            "isGoodForWorking": false
        },
        {
            "id": "2546701d-ba6c-46f9-8fe3-d0cc68424238",
            "name": "\u597d\u65e5\u5496\u5561",
            "score": 28.5,
            "latitude": 24.1761297,
            "longitude": 120.6480212,
            "type": "normal",
            "attr": {
                "is_starred": false,
                "is_donated": false,
                "is_friendly": false
            },
            "qualified": true,
            "isGoodForWorking": true
        },
        {
            "id": "25c225c3-54fc-44cd-b9d7-fd51eb603408",
            "name": "Fortunate Coffee \u4e16\u754c\u5e78\u798f\u5496\u5561\u8c50\u539f\u5e97",
            "score": 29,
            "latitude": 24.2473597,
            "longitude": 120.7169539,
            "type": "normal",
            "attr": {
                "is_starred": false,
                "is_donated": false,
                "is_friendly": false
            },
            "qualified": true,
            "isGoodForWorking": false
        },
        {
            "id": "25f222cf-12c0-4c9b-be4c-fba9664197bc",
            "name": "Cherry Espresso \u6afb\u6843\u8a08\u756b",
            "score": 30,
            "latitude": 24.1744201,
            "longitude": 120.6448057,
            "type": "normal",
            "attr": {
                "is_starred": false,
                "is_donated": false,
                "is_friendly": false
            },
            "qualified": true,
            "isGoodForWorking": true
        },
        {
            "id": "285d96ab-54aa-4bf8-9a8b-308a89059625",
            "name": "\u5f0e\u516d\u624b\u505a\u751c\u9ede\u5de5\u4f5c\u5ba4",
            "score": 17,
            "latitude": 24.1905519,
            "longitude": 120.6660268,
            "type": "normal",
            "attr": {
                "is_starred": false,
                "is_donated": false,
                "is_friendly": false
            },
            "qualified": true,
            "isGoodForWorking": false
        },
        {
            "id": "28691299-c867-4954-9530-7e3cbb5a378e",
            "name": "Fish Cafe \u81ea\u5bb6\u70d8\u7119\u5496\u5561\u9928",
            "score": 30,
            "latitude": 24.1806713,
            "longitude": 120.5891518,
            "type": "normal",
            "attr": {
                "is_starred": false,
                "is_donated": false,
                "is_friendly": false
            },
            "qualified": true,
            "isGoodForWorking": true
        },
        {
            "id": "29700233-ea03-47d1-a37b-80953a122b86",
            "name": "\u54c1\u8c46\u5496\u5561",
            "score": 23,
            "latitude": 24.1471779,
            "longitude": 120.6692788,
            "type": "normal",
            "attr": {
                "is_starred": false,
                "is_donated": false,
                "is_friendly": false
            },
            "qualified": true,
            "isGoodForWorking": false
        },
        {
            "id": "2a42c40e-2b9c-47c5-b807-f207e4fac1e6",
            "name": "DM Cafe",
            "score": 27,
            "latitude": 24.1437688,
            "longitude": 120.6680648,
            "type": "normal",
            "attr": {
                "is_starred": false,
                "is_donated": false,
                "is_friendly": false
            },
            "qualified": true,
            "isGoodForWorking": true
        },
        {
            "id": "2a45b5eb-4a04-4142-b658-d96d467c957e",
            "name": "\u6b23\u54c1\u5496\u5561\u838a\u5712",
            "score": 25,
            "latitude": 24.215665,
            "longitude": 120.7829699,
            "type": "normal",
            "attr": {
                "is_starred": false,
                "is_donated": false,
                "is_friendly": false
            },
            "qualified": true,
            "isGoodForWorking": false
        },
        {
            "id": "2a94b4f2-185f-483b-bd1c-6db1fc43aa6f",
            "name": "WAP cafe",
            "score": 23,
            "latitude": 24.154946,
            "longitude": 120.719535,
            "type": "normal",
            "attr": {
                "is_starred": false,
                "is_donated": false,
                "is_friendly": false
            },
            "qualified": true,
            "isGoodForWorking": false
        },
        {
            "id": "2aaabfa6-5eda-49c8-9d77-7e3897a80b18",
            "name": "Okiedokie cafe",
            "score": 28,
            "latitude": 24.153646,
            "longitude": 120.658368,
            "type": "normal",
            "attr": {
                "is_starred": false,
                "is_donated": false,
                "is_friendly": false
            },
            "qualified": true,
            "isGoodForWorking": true
        },
        {
            "id": "2af8036b-4aa3-4772-a77a-01a1c1b53545",
            "name": "Coffee String \u5496\u5561\u7dda",
            "score": 29,
            "latitude": 24.1801848,
            "longitude": 120.700978,
            "type": "normal",
            "attr": {
                "is_starred": false,
                "is_donated": false,
                "is_friendly": false
            },
            "qualified": true,
            "isGoodForWorking": false
        },
        {
            "id": "2c7764dc-3a2c-4ed8-a758-0bb4883da8f8",
            "name": "Kophy cafe",
            "score": 27.5,
            "latitude": 24.1547866,
            "longitude": 120.6559337,
            "type": "normal",
            "attr": {
                "is_starred": false,
                "is_donated": false,
                "is_friendly": false
            },
            "qualified": true,
            "isGoodForWorking": true
        },
        {
            "id": "2d2aaa52-e0d0-401d-8987-efeb7fa65b09",
            "name": "\u7f85\u5e03\u68ee\u5496\u5561\u66f8\u87f2\u623f",
            "score": 14,
            "latitude": 24.0360277,
            "longitude": 120.6433105,
            "type": "normal",
            "attr": {
                "is_starred": false,
                "is_donated": false,
                "is_friendly": false
            },
            "qualified": true,
            "isGoodForWorking": false
        },
        {
            "id": "2db8f521-8b0a-42a9-b58a-ac5bffe3f9e0",
            "name": "Sepia coffee \u65af\u6bd4\u4e9e\u5496\u5561 (\u671d\u5bcc\u5e97)",
            "score": 29,
            "latitude": 24.1637845,
            "longitude": 120.6354669,
            "type": "normal",
            "attr": {
                "is_starred": false,
                "is_donated": false,
                "is_friendly": false
            },
            "qualified": true,
            "isGoodForWorking": true
        },
        {
            "id": "2dce0af6-6bf0-448e-8eff-11b6e2552409",
            "name": "PAQ Life Camp",
            "score": 30,
            "latitude": 24.13233,
            "longitude": 120.644579,
            "type": "normal",
            "attr": {
                "is_starred": false,
                "is_donated": false,
                "is_friendly": false
            },
            "qualified": true,
            "isGoodForWorking": false
        },
        {
            "id": "2e4c7cf1-4948-4edf-bd8b-7a0b8b311ab9",
            "name": "\u5496\u5561\u5de5\u5834",
            "score": 27,
            "latitude": 24.170958,
            "longitude": 120.647366,
            "type": "normal",
            "attr": {
                "is_starred": false,
                "is_donated": false,
                "is_friendly": false
            },
            "qualified": true,
            "isGoodForWorking": false
        },
        {
            "id": "31b89aa7-501b-41a1-9427-5ae4add33e4b",
            "name": "\u79c1\u85cf\u5c0f\u5df7\u81ea\u5bb6\u7119\u714e\u5496\u5561\u5de5\u4f5c\u5ba4",
            "score": 30,
            "latitude": 24.248358,
            "longitude": 120.725015,
            "type": "normal",
            "attr": {
                "is_starred": false,
                "is_donated": false,
                "is_friendly": false
            },
            "qualified": true,
            "isGoodForWorking": false
        },
        {
            "id": "3209115f-185f-4617-a219-d37831b6cc34",
            "name": "FLORA CAFFE'",
            "score": 27,
            "latitude": 24.1391694,
            "longitude": 120.6746235,
            "type": "normal",
            "attr": {
                "is_starred": false,
                "is_donated": false,
                "is_friendly": false
            },
            "qualified": true,
            "isGoodForWorking": true
        },
        {
            "id": "329382c1-9495-4792-aa80-f563a37b1877",
            "name": "H' Cafe",
            "score": 27,
            "latitude": 24.187358,
            "longitude": 120.5939672,
            "type": "normal",
            "attr": {
                "is_starred": false,
                "is_donated": false,
                "is_friendly": false
            },
            "qualified": true,
            "isGoodForWorking": false
        },
        {
            "id": "32b1bd08-8db6-440a-ac0d-9eab1c00d35d",
            "name": "JACU cafe",
            "score": 30,
            "latitude": 24.1408888,
            "longitude": 120.6519247,
            "type": "normal",
            "attr": {
                "is_starred": false,
                "is_donated": false,
                "is_friendly": false
            },
            "qualified": true,
            "isGoodForWorking": false
        },
        {
            "id": "32b3058c-92ec-4f8b-ad00-35610b0eef21",
            "name": "meher cafe",
            "score": 24,
            "latitude": 24.1408804,
            "longitude": 120.7067586,
            "type": "normal",
            "attr": {
                "is_starred": false,
                "is_donated": false,
                "is_friendly": false
            },
            "qualified": true,
            "isGoodForWorking": false
        },
        {
            "id": "32e4a00a-962c-44c8-86ee-ca062c49b95d",
            "name": "meets\u8993\u98df",
            "score": 0,
            "latitude": 24.1474516,
            "longitude": 120.6564918,
            "type": "normal",
            "attr": {
                "is_starred": false,
                "is_donated": false,
                "is_friendly": false
            },
            "qualified": true,
            "isGoodForWorking": false
        },
        {
            "id": "32efe402-aed0-4707-8e0f-73e098d8f0d5",
            "name": "\u5143\u751f\u5496\u5561",
            "score": 29,
            "latitude": 24.1451897,
            "longitude": 120.6642014,
            "type": "normal",
            "attr": {
                "is_starred": false,
                "is_donated": false,
                "is_friendly": false
            },
            "qualified": true,
            "isGoodForWorking": true
        },
        {
            "id": "33a13951-b264-424f-b7ae-b3f786a79b55",
            "name": "\u74e6\u5361\u5496\u5561",
            "score": 20,
            "latitude": 24.1448705,
            "longitude": 120.6489179,
            "type": "normal",
            "attr": {
                "is_starred": false,
                "is_donated": false,
                "is_friendly": false
            },
            "qualified": true,
            "isGoodForWorking": false
        },
        {
            "id": "342f1188-bc80-4926-93d6-965919206542",
            "name": "\u591a\u99ac\u5496\u5561",
            "score": 26,
            "latitude": 24.1736838,
            "longitude": 120.690659,
            "type": "normal",
            "attr": {
                "is_starred": false,
                "is_donated": false,
                "is_friendly": false
            },
            "qualified": true,
            "isGoodForWorking": true
        },
        {
            "id": "349961ea-81d2-47a0-8e8e-52401fbc9d76",
            "name": "\u5deb\u5e2b\u5496\u5561",
            "score": 25,
            "latitude": 24.133325,
            "longitude": 120.717672,
            "type": "normal",
            "attr": {
                "is_starred": false,
                "is_donated": false,
                "is_friendly": false
            },
            "qualified": true,
            "isGoodForWorking": false
        },
        {
            "id": "34cf03e9-3519-46f8-9278-96e94011b7b5",
            "name": "\u65e5\u6f2b\u5496\u5561\u5927\u91cc\u5e97",
            "score": 19,
            "latitude": 24.1134302,
            "longitude": 120.6760893,
            "type": "normal",
            "attr": {
                "is_starred": false,
                "is_donated": false,
                "is_friendly": false
            },
            "qualified": true,
            "isGoodForWorking": false
        },
        {
            "id": "353eeed6-d4c1-4280-abda-6a8712807f60",
            "name": "Kibii cafe \u6c23\u5473\u5496\u5561",
            "score": 24,
            "latitude": 24.158043,
            "longitude": 120.638435,
            "type": "normal",
            "attr": {
                "is_starred": false,
                "is_donated": false,
                "is_friendly": false
            },
            "qualified": true,
            "isGoodForWorking": true
        },
        {
            "id": "36b1b7f1-7a4a-4e9e-a802-c4eaaff3d738",
            "name": "\u5bf6\u548c\u5496\u5561\u751f\u6d3b\u9928",
            "score": 22,
            "latitude": 24.1371915,
            "longitude": 120.6644497,
            "type": "normal",
            "attr": {
                "is_starred": false,
                "is_donated": false,
                "is_friendly": false
            },
            "qualified": true,
            "isGoodForWorking": false
        },
        {
            "id": "378308a3-5563-43c6-a3b1-dffa5fc9b987",
            "name": "\u6613\u676f\u5496\u5561\u70d8\u7119\u623f",
            "score": 0,
            "latitude": 24.282374,
            "longitude": 120.5750613,
            "type": "normal",
            "attr": {
                "is_starred": false,
                "is_donated": false,
                "is_friendly": false
            },
            "qualified": true,
            "isGoodForWorking": false
        },
        {
            "id": "37cb5973-3851-4df5-ab8f-e9cca7fd2d2e",
            "name": "Dilla Studio \u8494\u863f\u5b50\u5496\u5561\u9078\u7269\u5de5\u4f5c\u5ba4",
            "score": 25,
            "latitude": 24.1473432,
            "longitude": 120.6854609,
            "type": "normal",
            "attr": {
                "is_starred": false,
                "is_donated": false,
                "is_friendly": false
            },
            "qualified": true,
            "isGoodForWorking": false
        },
        {
            "id": "37e45306-05ee-403d-900b-c81f3c6817ef",
            "name": "\u7e46\u7279\u5496\u5561ARTMUNICATE CAFE'",
            "score": 29.5,
            "latitude": 24.1902881,
            "longitude": 120.6150695,
            "type": "normal",
            "attr": {
                "is_starred": false,
                "is_donated": false,
                "is_friendly": false
            },
            "qualified": true,
            "isGoodForWorking": true
        },
        {
            "id": "37f70411-8b6b-41a6-8674-b26a17e704dc",
            "name": "kafeD\u5f97\u52d2\u65af\u767b\u548c\u5cb8\u5496\u5561",
            "score": 28,
            "latitude": 24.149603,
            "longitude": 120.651485,
            "type": "normal",
            "attr": {
                "is_starred": false,
                "is_donated": false,
                "is_friendly": false
            },
            "qualified": true,
            "isGoodForWorking": false
        },
        {
            "id": "38404bae-3091-4543-a197-5fa3db3bdb92",
            "name": "3393",
            "score": 27,
            "latitude": 24.1332755,
            "longitude": 120.6797632,
            "type": "normal",
            "attr": {
                "is_starred": false,
                "is_donated": false,
                "is_friendly": false
            },
            "qualified": true,
            "isGoodForWorking": false
        },
        {
            "id": "38f22c4e-c0a9-4d29-ae20-025550479028",
            "name": "\u6c90\u5496\u5561 Mood caf\u00e9",
            "score": 0,
            "latitude": 24.2373329,
            "longitude": 120.562989,
            "type": "normal",
            "attr": {
                "is_starred": false,
                "is_donated": false,
                "is_friendly": false
            },
            "qualified": true,
            "isGoodForWorking": false
        },
        {
            "id": "3a07208a-e433-43e2-b65c-6e7aafc0cdde",
            "name": "23\u5f04\u5496\u5561",
            "score": 0,
            "latitude": 24.268923,
            "longitude": 120.576201,
            "type": "normal",
            "attr": {
                "is_starred": false,
                "is_donated": false,
                "is_friendly": false
            },
            "qualified": true,
            "isGoodForWorking": false
        },
        {
            "id": "3a41343b-8242-4bfa-ad1e-be079d0d339a",
            "name": "\u70d8work\/\u5496\u5561\u70d8\u4f5c\u574a",
            "score": 30,
            "latitude": 24.1358422,
            "longitude": 120.6682668,
            "type": "normal",
            "attr": {
                "is_starred": true,
                "is_donated": false,
                "is_friendly": false
            },
            "qualified": true,
            "isGoodForWorking": true
        },
        {
            "id": "3b6e9a33-074c-4565-8c5c-d466ce9563b1",
            "name": "\u8993\u5149\u5496\u5561",
            "score": 24,
            "latitude": 24.1438042,
            "longitude": 120.6586347,
            "type": "normal",
            "attr": {
                "is_starred": false,
                "is_donated": false,
                "is_friendly": false
            },
            "qualified": true,
            "isGoodForWorking": false
        },
        {
            "id": "3ca5ff00-c411-4cb6-b649-d47b78549037",
            "name": "\u6b50\u820d\u5496\u5561 ORSIR COFFEE",
            "score": 0,
            "latitude": 24.1433032,
            "longitude": 120.6694439,
            "type": "normal",
            "attr": {
                "is_starred": false,
                "is_donated": false,
                "is_friendly": false
            },
            "qualified": true,
            "isGoodForWorking": false
        },
        {
            "id": "3cad0f5c-727c-419e-9355-dd6a1fec0732",
            "name": "Zebra Walking Cafe \u6591\u99ac\u6563\u6b65\u5496\u5561",
            "score": 24,
            "latitude": 24.1391789,
            "longitude": 120.6651459,
            "type": "normal",
            "attr": {
                "is_starred": false,
                "is_donated": false,
                "is_friendly": false
            },
            "qualified": true,
            "isGoodForWorking": false
        },
        {
            "id": "3ddcf82b-54ea-4167-b4e1-a3f4a38a5849",
            "name": "J.W. Cafe",
            "score": 24,
            "latitude": 24.1421443,
            "longitude": 120.6478578,
            "type": "normal",
            "attr": {
                "is_starred": false,
                "is_donated": false,
                "is_friendly": false
            },
            "qualified": true,
            "isGoodForWorking": true
        },
        {
            "id": "3dfa3064-3a2f-4bd1-a244-98183ae66f16",
            "name": "\u6642\u5149",
            "score": 0,
            "latitude": 24.1426453,
            "longitude": 120.6750248,
            "type": "normal",
            "attr": {
                "is_starred": false,
                "is_donated": false,
                "is_friendly": false
            },
            "qualified": true,
            "isGoodForWorking": false
        },
        {
            "id": "3f20681d-9a1e-4870-849c-f38f1f444c88",
            "name": "\u5c71\u4f73\u4f0a 3+1 caf\u00e9",
            "score": 25,
            "latitude": 24.1863294,
            "longitude": 120.6106204,
            "type": "normal",
            "attr": {
                "is_starred": false,
                "is_donated": false,
                "is_friendly": false
            },
            "qualified": true,
            "isGoodForWorking": false
        },
        {
            "id": "419dda32-c9cc-43e7-b896-d309d86acd38",
            "name": "CoffeeEAH",
            "score": 28,
            "latitude": 24.144049,
            "longitude": 120.641483,
            "type": "normal",
            "attr": {
                "is_starred": false,
                "is_donated": false,
                "is_friendly": false
            },
            "qualified": true,
            "isGoodForWorking": true
        },
        {
            "id": "41d28f69-4ede-40b9-b1cc-a4a930939935",
            "name": "Q morning \u624b\u4f5c\u8f15\u98df\/\u5496\u5561",
            "score": 29,
            "latitude": 24.1345789,
            "longitude": 120.648957,
            "type": "normal",
            "attr": {
                "is_starred": false,
                "is_donated": false,
                "is_friendly": false
            },
            "qualified": true,
            "isGoodForWorking": false
        },
        {
            "id": "420fe5af-111e-4ed1-93e0-dd538c418462",
            "name": "\u8c93\u65c5\u884c\u5496\u5561\u8f15\u98df\u9928",
            "score": 20,
            "latitude": 24.135293,
            "longitude": 120.673792,
            "type": "normal",
            "attr": {
                "is_starred": false,
                "is_donated": false,
                "is_friendly": false
            },
            "qualified": true,
            "isGoodForWorking": false
        },
        {
            "id": "4393d3e2-0c14-4f8d-8357-b4b209a274d7",
            "name": "mirror cafe\u7af6\u5b50\u5496\u5561",
            "score": 27,
            "latitude": 24.1489685,
            "longitude": 120.6657612,
            "type": "normal",
            "attr": {
                "is_starred": false,
                "is_donated": false,
                "is_friendly": false
            },
            "qualified": true,
            "isGoodForWorking": false
        },
        {
            "id": "4529d7c6-805c-4377-b9aa-bd9deaed52f8",
            "name": "\u60f3\u60f3\u4eba\u6587\u7a7a\u9593",
            "score": 28.5,
            "latitude": 24.1375292,
            "longitude": 120.6783147,
            "type": "normal",
            "attr": {
                "is_starred": false,
                "is_donated": false,
                "is_friendly": false
            },
            "qualified": true,
            "isGoodForWorking": false
        },
        {
            "id": "46c091a9-c1ec-42f4-9358-c667c10312cb",
            "name": "SolidBean Coffee",
            "score": 28,
            "latitude": 24.156451,
            "longitude": 120.657761,
            "type": "normal",
            "attr": {
                "is_starred": false,
                "is_donated": false,
                "is_friendly": false
            },
            "qualified": true,
            "isGoodForWorking": true
        },
        {
            "id": "47bcd065-6479-4ef3-bb81-a84d3209d576",
            "name": "Brewband Coffee",
            "score": 28,
            "latitude": 24.3468058,
            "longitude": 120.625425,
            "type": "normal",
            "attr": {
                "is_starred": false,
                "is_donated": false,
                "is_friendly": false
            },
            "qualified": true,
            "isGoodForWorking": true
        },
        {
            "id": "49333cd6-c79a-4987-9cdd-35e188f9a70f",
            "name": "\u7d05\u6afb\u6843\u5496\u5561\u9928",
            "score": 0,
            "latitude": 24.269503,
            "longitude": 120.577508,
            "type": "normal",
            "attr": {
                "is_starred": false,
                "is_donated": false,
                "is_friendly": false
            },
            "qualified": true,
            "isGoodForWorking": false
        },
        {
            "id": "4b8d5b20-ec66-4ba5-aabc-1bce50c3f4a8",
            "name": "\u539f\u7269\u5496\u5561\u516c\u76ca\u5e97",
            "score": 30,
            "latitude": 24.1512279,
            "longitude": 120.6584249,
            "type": "normal",
            "attr": {
                "is_starred": false,
                "is_donated": false,
                "is_friendly": false
            },
            "qualified": true,
            "isGoodForWorking": true
        },
        {
            "id": "4c14140b-8c85-4779-9488-78e8ed5f7940",
            "name": "1987\u5eda\u623f\u5de5\u4f5c\u5ba4",
            "score": 29.5,
            "latitude": 24.139807,
            "longitude": 120.663536,
            "type": "normal",
            "attr": {
                "is_starred": false,
                "is_donated": false,
                "is_friendly": false
            },
            "qualified": true,
            "isGoodForWorking": true
        },
        {
            "id": "4c388c3b-3746-4e3e-ba1b-6c9a417ec9eb",
            "name": "Found \u627e\u00b7\u5496\u5561",
            "score": 23,
            "latitude": 24.1513547,
            "longitude": 120.6592587,
            "type": "normal",
            "attr": {
                "is_starred": false,
                "is_donated": false,
                "is_friendly": false
            },
            "qualified": true,
            "isGoodForWorking": false
        },
        {
            "id": "4d2b3996-b536-43d6-a3a4-e1000d58b20f",
            "name": "Sweet Cafe",
            "score": 19,
            "latitude": 24.1277058,
            "longitude": 120.6785095,
            "type": "normal",
            "attr": {
                "is_starred": false,
                "is_donated": false,
                "is_friendly": false
            },
            "qualified": true,
            "isGoodForWorking": true
        },
        {
            "id": "4d59cbaa-df04-4b03-a2d9-461b0f5eab48",
            "name": "Colorful Coffee \u5361\u52d2\u8299\u624b\u611f\u5496\u5561",
            "score": 29.5,
            "latitude": 24.1772536,
            "longitude": 120.6429197,
            "type": "normal",
            "attr": {
                "is_starred": false,
                "is_donated": false,
                "is_friendly": false
            },
            "qualified": true,
            "isGoodForWorking": true
        },
        {
            "id": "4e17a2a7-642a-450c-99bc-23c1f7ed8f8d",
            "name": "\u611b\u55ac\u4f0a\u70d8\u7119",
            "score": 23,
            "latitude": 24.1469014,
            "longitude": 120.671283,
            "type": "normal",
            "attr": {
                "is_starred": false,
                "is_donated": false,
                "is_friendly": false
            },
            "qualified": true,
            "isGoodForWorking": false
        },
        {
            "id": "51005db0-9b62-4cea-8633-e845c34029e9",
            "name": "\u77f3\u5c1a\u81ea\u7136\u63a2\u7d22\u5c4b\u3010\u690d\u7269\u5712\u5e97\u3011",
            "score": 16,
            "latitude": 24.1574573,
            "longitude": 120.6664264,
            "type": "normal",
            "attr": {
                "is_starred": false,
                "is_donated": false,
                "is_friendly": false
            },
            "qualified": true,
            "isGoodForWorking": false
        },
        {
            "id": "51766bff-8b28-494e-894b-41ee239b7126",
            "name": "MAPPER CAFE",
            "score": 30,
            "latitude": 24.136831,
            "longitude": 120.600828,
            "type": "normal",
            "attr": {
                "is_starred": false,
                "is_donated": false,
                "is_friendly": false
            },
            "qualified": true,
            "isGoodForWorking": false
        },
        {
            "id": "51b16d4e-9e88-4fcd-bf51-7b7136ed014d",
            "name": "LightBeam Coffee Roasters",
            "score": 26,
            "latitude": 24.155501,
            "longitude": 120.689649,
            "type": "normal",
            "attr": {
                "is_starred": false,
                "is_donated": false,
                "is_friendly": false
            },
            "qualified": true,
            "isGoodForWorking": true
        },
        {
            "id": "52d04a1b-e5cd-4247-a78b-3154eaa06c2d",
            "name": "Monospace \u5171\u540c\u5de5\u4f5c\u7a7a\u9593",
            "score": 29,
            "latitude": 24.1479612,
            "longitude": 120.6735056,
            "type": "normal",
            "attr": {
                "is_starred": false,
                "is_donated": false,
                "is_friendly": false
            },
            "qualified": true,
            "isGoodForWorking": true
        },
        {
            "id": "53ceb453-d8b6-4e9a-bbac-8ee71b753156",
            "name": "single place coffee lab.",
            "score": 30,
            "latitude": 24.1513775,
            "longitude": 120.6857994,
            "type": "normal",
            "attr": {
                "is_starred": false,
                "is_donated": false,
                "is_friendly": false
            },
            "qualified": true,
            "isGoodForWorking": true
        },
        {
            "id": "53da0788-717f-40ef-b833-d54d54f2e1b2",
            "name": "\u76e7\u4ed5 Luscoffee",
            "score": 28.5,
            "latitude": 24.1330662,
            "longitude": 120.6622762,
            "type": "normal",
            "attr": {
                "is_starred": false,
                "is_donated": false,
                "is_friendly": false
            },
            "qualified": true,
            "isGoodForWorking": true
        },
        {
            "id": "542db829-11e4-4525-8733-82c12710ba94",
            "name": "\u516d\u865f\u8c93\u6d1e",
            "score": 24,
            "latitude": 24.1526477,
            "longitude": 120.6976917,
            "type": "normal",
            "attr": {
                "is_starred": false,
                "is_donated": false,
                "is_friendly": false
            },
            "qualified": true,
            "isGoodForWorking": false
        },
        {
            "id": "56239d36-05ce-469f-beec-1289383ba4f5",
            "name": "\u4f2f\u6717\u5496\u5561\u9928 (\u6771\u6d77\u5927\u5b78\u5e97)",
            "score": 27,
            "latitude": 24.1797391,
            "longitude": 120.5961094,
            "type": "normal",
            "attr": {
                "is_starred": false,
                "is_donated": false,
                "is_friendly": false
            },
            "qualified": true,
            "isGoodForWorking": false
        },
        {
            "id": "563693bc-10af-4f93-b646-4d7c7ab324fb",
            "name": "\u5bb6\u5496\u5561",
            "score": 30,
            "latitude": 24.1567359,
            "longitude": 120.6570601,
            "type": "normal",
            "attr": {
                "is_starred": false,
                "is_donated": false,
                "is_friendly": false
            },
            "qualified": true,
            "isGoodForWorking": false
        },
        {
            "id": "56428521-2584-4987-8759-4bebaf6872ea",
            "name": "\u4ee5\u4fbf\u4ee5\u8b1d\u5496\u5561",
            "score": 26,
            "latitude": 24.1384923,
            "longitude": 120.6817981,
            "type": "normal",
            "attr": {
                "is_starred": false,
                "is_donated": false,
                "is_friendly": false
            },
            "qualified": true,
            "isGoodForWorking": false
        },
        {
            "id": "5690c398-425c-40a7-8cf5-b00cb6b90392",
            "name": "\u51f1\u5ea6\u9ad8\u7a7a\u5496\u5561",
            "score": 26,
            "latitude": 24.1482421,
            "longitude": 120.6735406,
            "type": "normal",
            "attr": {
                "is_starred": false,
                "is_donated": false,
                "is_friendly": false
            },
            "qualified": true,
            "isGoodForWorking": false
        },
        {
            "id": "57bb09ec-a2e7-49c5-b27d-bd1a2d00f2af",
            "name": "\u73c8\u7432\u9662",
            "score": 29.5,
            "latitude": 24.1410772,
            "longitude": 120.6564954,
            "type": "normal",
            "attr": {
                "is_starred": false,
                "is_donated": false,
                "is_friendly": false
            },
            "qualified": true,
            "isGoodForWorking": true
        },
        {
            "id": "57cb3eb8-3972-47b0-91b5-3395aa33790d",
            "name": "\u6a02\u5b89\u5496\u5561Lean coffee",
            "score": 25,
            "latitude": 24.1850603,
            "longitude": 120.620492,
            "type": "normal",
            "attr": {
                "is_starred": false,
                "is_donated": false,
                "is_friendly": false
            },
            "qualified": true,
            "isGoodForWorking": false
        },
        {
            "id": "5921e3be-82ca-43bf-9ffd-1c195ad39118",
            "name": "\u8c6c\u6cb9\u3001\u5496\u5561\u8207\u95b1\u8b80",
            "score": 25,
            "latitude": 24.2630175,
            "longitude": 120.5703975,
            "type": "normal",
            "attr": {
                "is_starred": false,
                "is_donated": false,
                "is_friendly": false
            },
            "qualified": true,
            "isGoodForWorking": false
        },
        {
            "id": "5965231e-58db-445c-a895-a04d70e70978",
            "name": "\u5df4\u83f2\u7279\u5496\u5561",
            "score": 0,
            "latitude": 24.270205,
            "longitude": 120.579015,
            "type": "normal",
            "attr": {
                "is_starred": false,
                "is_donated": false,
                "is_friendly": false
            },
            "qualified": true,
            "isGoodForWorking": false
        },
        {
            "id": "5a579b54-7fc5-4f57-b5d1-78456850828d",
            "name": "\u7b54\u9ed8\u5496\u5561\u5de5\u4f5c\u5ba4",
            "score": 29,
            "latitude": 24.1917927,
            "longitude": 120.6117717,
            "type": "normal",
            "attr": {
                "is_starred": false,
                "is_donated": false,
                "is_friendly": false
            },
            "qualified": true,
            "isGoodForWorking": true
        },
        {
            "id": "5abc1ccf-f699-4bd5-a4e0-57fd698bacaa",
            "name": "\u4ea8\u5229\u8c9e\u7cbe\u54c1\u5496\u5561\u9928",
            "score": 29.5,
            "latitude": 24.1095268,
            "longitude": 120.6862258,
            "type": "normal",
            "attr": {
                "is_starred": false,
                "is_donated": false,
                "is_friendly": false
            },
            "qualified": true,
            "isGoodForWorking": true
        },
        {
            "id": "5bfcf70e-c6e4-4194-a353-312dbf2d50bf",
            "name": "\u5c0f\u5fc3\u5730\u6ed1",
            "score": 0,
            "latitude": 24.1197513,
            "longitude": 120.67426,
            "type": "normal",
            "attr": {
                "is_starred": false,
                "is_donated": false,
                "is_friendly": false
            },
            "qualified": true,
            "isGoodForWorking": false
        },
        {
            "id": "5c37d887-2a8f-4c5d-88c0-5e835d76c5ae",
            "name": "\u65c5\u884c\u55ab\u8336\u5e97",
            "score": 29,
            "latitude": 24.152445,
            "longitude": 120.670764,
            "type": "normal",
            "attr": {
                "is_starred": false,
                "is_donated": false,
                "is_friendly": false
            },
            "qualified": true,
            "isGoodForWorking": true
        },
        {
            "id": "5ceda4d2-9731-4d0e-88b8-b0d781744b6c",
            "name": "\u5341\u4e00\u7cbe\u54c1\u5496\u5561 Potion 11 Cafe",
            "score": 28,
            "latitude": 24.1488359,
            "longitude": 120.6539304,
            "type": "normal",
            "attr": {
                "is_starred": false,
                "is_donated": false,
                "is_friendly": false
            },
            "qualified": true,
            "isGoodForWorking": true
        },
        {
            "id": "5dadf42b-1c02-4ea5-bb18-efcdfcc3037a",
            "name": "\u5927\u9580\u5496\u5561",
            "score": 23,
            "latitude": 24.0949146,
            "longitude": 120.7005752,
            "type": "normal",
            "attr": {
                "is_starred": false,
                "is_donated": false,
                "is_friendly": false
            },
            "qualified": true,
            "isGoodForWorking": false
        },
        {
            "id": "5e27a9bd-a4e3-433c-b329-afa05686ceb1",
            "name": "\u6eaa\u908a\u5341\u4e09",
            "score": 23,
            "latitude": 24.1178398,
            "longitude": 120.6392198,
            "type": "normal",
            "attr": {
                "is_starred": false,
                "is_donated": false,
                "is_friendly": false
            },
            "qualified": true,
            "isGoodForWorking": false
        },
        {
            "id": "5e952c8c-1196-49fb-af8b-8bdfe9ecb78b",
            "name": "coffee talks \u982d\u9760\u5496\u5561",
            "score": 30,
            "latitude": 24.1600303,
            "longitude": 120.6798343,
            "type": "normal",
            "attr": {
                "is_starred": false,
                "is_donated": false,
                "is_friendly": false
            },
            "qualified": true,
            "isGoodForWorking": true
        },
        {
            "id": "5f61bd7c-0de1-480d-9d28-79bb568b29ef",
            "name": "Nunchuk \u62ff\u7ff9\u5496\u5561",
            "score": 26.5,
            "latitude": 24.153476,
            "longitude": 120.662469,
            "type": "normal",
            "attr": {
                "is_starred": false,
                "is_donated": false,
                "is_friendly": false
            },
            "qualified": true,
            "isGoodForWorking": true
        },
        {
            "id": "60160718-86aa-49c1-9030-b838b0098035",
            "name": "Now Place",
            "score": 23,
            "latitude": 24.1750209,
            "longitude": 120.6457984,
            "type": "normal",
            "attr": {
                "is_starred": false,
                "is_donated": false,
                "is_friendly": false
            },
            "qualified": true,
            "isGoodForWorking": false
        },
        {
            "id": "61ad0967-682b-4bba-aaf9-b93dbeeea6a0",
            "name": "\u65b0\u92b3\u5496\u5561\u570b\u6cf0\u5e97",
            "score": 26,
            "latitude": 24.1599788,
            "longitude": 120.6975707,
            "type": "normal",
            "attr": {
                "is_starred": false,
                "is_donated": false,
                "is_friendly": false
            },
            "qualified": true,
            "isGoodForWorking": false
        },
        {
            "id": "61f57dd6-de9b-4a8f-8413-a368b9b8f5a1",
            "name": "\u753a\u8d70\u99ac",
            "score": 29,
            "latitude": 24.1359657,
            "longitude": 120.6708908,
            "type": "normal",
            "attr": {
                "is_starred": false,
                "is_donated": false,
                "is_friendly": false
            },
            "qualified": true,
            "isGoodForWorking": true
        },
        {
            "id": "62cddb0f-a160-4df2-8cb5-b2624141255c",
            "name": "Cafe PPM",
            "score": 29.5,
            "latitude": 24.103491,
            "longitude": 120.6984714,
            "type": "normal",
            "attr": {
                "is_starred": false,
                "is_donated": false,
                "is_friendly": false
            },
            "qualified": true,
            "isGoodForWorking": false
        },
        {
            "id": "634cf8d8-8878-4091-9cc8-7cbca951b5a1",
            "name": "\u6f2b\u6642\u610f\u5883",
            "score": 28,
            "latitude": 24.158512,
            "longitude": 120.7170103,
            "type": "normal",
            "attr": {
                "is_starred": false,
                "is_donated": false,
                "is_friendly": false
            },
            "qualified": true,
            "isGoodForWorking": false
        },
        {
            "id": "634d3a9a-491b-4b3a-ad5f-e710f8355011",
            "name": "\u76ee\u89ba\u5496\u5561 trio\u5e97",
            "score": 24,
            "latitude": 24.1551503,
            "longitude": 120.6562229,
            "type": "normal",
            "attr": {
                "is_starred": false,
                "is_donated": false,
                "is_friendly": false
            },
            "qualified": true,
            "isGoodForWorking": true
        },
        {
            "id": "63cd50c6-30be-4157-af79-9dabaebe2501",
            "name": "\u3010\u6b50\u5ba2\u4f6c\u3011\u53f0\u4e2d\u592a\u539f\u5e97\u5275\u59cb\u5e97",
            "score": 28,
            "latitude": 24.164945,
            "longitude": 120.684777,
            "type": "normal",
            "attr": {
                "is_starred": false,
                "is_donated": false,
                "is_friendly": false
            },
            "qualified": true,
            "isGoodForWorking": false
        },
        {
            "id": "63cf8078-a5a6-4f50-b4cb-bee44119cc28",
            "name": "\u6162\u6c34",
            "score": 14,
            "latitude": 24.1869976,
            "longitude": 120.5945028,
            "type": "normal",
            "attr": {
                "is_starred": false,
                "is_donated": false,
                "is_friendly": false
            },
            "qualified": true,
            "isGoodForWorking": false
        },
        {
            "id": "648ed9a5-08e1-4bf8-867e-74a5951908d6",
            "name": "Cantata Kahve \u574e\u5854\u5854\u5496\u5561\u574a",
            "score": 28,
            "latitude": 24.1834391,
            "longitude": 120.6470036,
            "type": "normal",
            "attr": {
                "is_starred": false,
                "is_donated": false,
                "is_friendly": false
            },
            "qualified": true,
            "isGoodForWorking": false
        },
        {
            "id": "655c2613-38be-48e7-95ff-147447aee588",
            "name": "\u559d\u5496\u5561",
            "score": 26.5,
            "latitude": 24.119618,
            "longitude": 120.656286,
            "type": "normal",
            "attr": {
                "is_starred": false,
                "is_donated": false,
                "is_friendly": false
            },
            "qualified": true,
            "isGoodForWorking": true
        },
        {
            "id": "6571fa23-417d-4b49-9de3-70219975f665",
            "name": "\u6771\u9e97\u98a8\u5e97\u8336\u82b1\u5496\u5561",
            "score": 16,
            "latitude": 24.1440667,
            "longitude": 120.6308182,
            "type": "normal",
            "attr": {
                "is_starred": false,
                "is_donated": false,
                "is_friendly": false
            },
            "qualified": true,
            "isGoodForWorking": false
        },
        {
            "id": "68698d61-40aa-4b1c-80d0-894100c2b2c0",
            "name": "Roundabout Caf\u00e9",
            "score": 22,
            "latitude": 24.1500234,
            "longitude": 120.6675179,
            "type": "normal",
            "attr": {
                "is_starred": false,
                "is_donated": false,
                "is_friendly": false
            },
            "qualified": true,
            "isGoodForWorking": false
        },
        {
            "id": "68dca33f-0b0d-48d1-b20f-606a14a2ee79",
            "name": "Elk Cafe  \u8def\uff0c\u9e7f\u5496\u5561",
            "score": 26,
            "latitude": 24.1165289,
            "longitude": 120.6998447,
            "type": "normal",
            "attr": {
                "is_starred": false,
                "is_donated": false,
                "is_friendly": false
            },
            "qualified": true,
            "isGoodForWorking": true
        },
        {
            "id": "69b90fe0-6d58-40b0-9586-5e3cf3ea98be",
            "name": "\u62db\u8ca1\u5496\u5561\u8216",
            "score": 0,
            "latitude": 24.143139,
            "longitude": 120.668084,
            "type": "normal",
            "attr": {
                "is_starred": false,
                "is_donated": false,
                "is_friendly": false
            },
            "qualified": true,
            "isGoodForWorking": false
        },
        {
            "id": "6a3ce865-b6b8-487c-801b-94a6af0fd163",
            "name": "edia cafe",
            "score": 27,
            "latitude": 24.1559186,
            "longitude": 120.6520193,
            "type": "normal",
            "attr": {
                "is_starred": false,
                "is_donated": false,
                "is_friendly": false
            },
            "qualified": true,
            "isGoodForWorking": true
        },
        {
            "id": "6abd0fba-0296-457c-a9de-dceb68878c6d",
            "name": "\u7562\u6d1b\u96c5\u7cbe\u9078\u5496\u5561\u9928",
            "score": 29,
            "latitude": 24.1399205,
            "longitude": 120.6683589,
            "type": "normal",
            "attr": {
                "is_starred": false,
                "is_donated": false,
                "is_friendly": false
            },
            "qualified": true,
            "isGoodForWorking": false
        },
        {
            "id": "6c546ce0-5911-477d-901f-35aca47e7d39",
            "name": "\u4e2d\u57ce\u5496\u5561",
            "score": 29.5,
            "latitude": 24.1482439,
            "longitude": 120.6277579,
            "type": "normal",
            "attr": {
                "is_starred": false,
                "is_donated": false,
                "is_friendly": false
            },
            "qualified": true,
            "isGoodForWorking": false
        },
        {
            "id": "6d947f21-4dc5-419a-b564-0fd8f17258e4",
            "name": "Cafe Muah",
            "score": 26,
            "latitude": 24.155306,
            "longitude": 120.6501577,
            "type": "normal",
            "attr": {
                "is_starred": false,
                "is_donated": false,
                "is_friendly": false
            },
            "qualified": true,
            "isGoodForWorking": true
        },
        {
            "id": "6fad0548-7e7b-49bd-8e6b-bfcca0f9b58d",
            "name": "\u6797\u500d\u5496\u5561",
            "score": 30,
            "latitude": 24.169935,
            "longitude": 120.678161,
            "type": "normal",
            "attr": {
                "is_starred": false,
                "is_donated": false,
                "is_friendly": false
            },
            "qualified": true,
            "isGoodForWorking": true
        },
        {
            "id": "7047fead-0483-412a-ba76-bab7b6cc98ef",
            "name": "\u6642\u9593\u8ef8\u98df\u5bbf\u5de5\u574a",
            "score": 30,
            "latitude": 24.1883712,
            "longitude": 120.5959112,
            "type": "normal",
            "attr": {
                "is_starred": false,
                "is_donated": false,
                "is_friendly": false
            },
            "qualified": true,
            "isGoodForWorking": false
        },
        {
            "id": "704c5b30-d24d-4fa7-891b-42585677e15d",
            "name": "\u6c11\u751f\u5496\u5561 People & Life.Cafe",
            "score": 29.5,
            "latitude": 24.1444154,
            "longitude": 120.6612626,
            "type": "normal",
            "attr": {
                "is_starred": false,
                "is_donated": false,
                "is_friendly": false
            },
            "qualified": true,
            "isGoodForWorking": true
        },
        {
            "id": "70b0d853-7a05-4208-967d-381a67c7a3e5",
            "name": "amazing63",
            "score": 23,
            "latitude": 24.251653,
            "longitude": 120.721325,
            "type": "normal",
            "attr": {
                "is_starred": false,
                "is_donated": false,
                "is_friendly": false
            },
            "qualified": true,
            "isGoodForWorking": false
        },
        {
            "id": "73c1ce24-6bc1-4905-993f-0915e357e584",
            "name": "\u5561\u718a\u5496\u5561\u5de5\u574a",
            "score": 29,
            "latitude": 24.2330969,
            "longitude": 120.5621109,
            "type": "normal",
            "attr": {
                "is_starred": false,
                "is_donated": false,
                "is_friendly": false
            },
            "qualified": true,
            "isGoodForWorking": false
        },
        {
            "id": "73d844da-a4a2-4c7f-bec9-cb9a9dad527b",
            "name": "\u5fa9\u8208\u5496\u5561\u4ea4\u6613\u6240",
            "score": 27,
            "latitude": 24.1351442,
            "longitude": 120.6860443,
            "type": "normal",
            "attr": {
                "is_starred": false,
                "is_donated": false,
                "is_friendly": false
            },
            "qualified": true,
            "isGoodForWorking": true
        },
        {
            "id": "740f7c11-6aa6-4142-af84-7333dc9095b2",
            "name": "pifferia \u5288\u98db\u5229\u4e9e",
            "score": 30,
            "latitude": 24.1340124,
            "longitude": 120.6829955,
            "type": "normal",
            "attr": {
                "is_starred": false,
                "is_donated": false,
                "is_friendly": false
            },
            "qualified": true,
            "isGoodForWorking": false
        },
        {
            "id": "759dfde1-bed1-4b10-b668-0211d3d57043",
            "name": "\u8c93\u722a\u5b50\u5496\u5561 Cat's Claw Brunch & Cafe'",
            "score": 28,
            "latitude": 24.160489,
            "longitude": 120.6784751,
            "type": "normal",
            "attr": {
                "is_starred": false,
                "is_donated": false,
                "is_friendly": false
            },
            "qualified": true,
            "isGoodForWorking": true
        },
        {
            "id": "75fe6e38-9395-4207-bc5b-21f260cdefda",
            "name": "\u597d\u4e8b\u767c\u751f- Function House ",
            "score": 25,
            "latitude": 24.1540269,
            "longitude": 120.681163,
            "type": "normal",
            "attr": {
                "is_starred": false,
                "is_donated": false,
                "is_friendly": false
            },
            "qualified": true,
            "isGoodForWorking": true
        },
        {
            "id": "76308da8-bcad-485a-bba4-761be5de8a1b",
            "name": "EZ \u5496\u5561",
            "score": 19,
            "latitude": 24.1593369,
            "longitude": 120.682526,
            "type": "normal",
            "attr": {
                "is_starred": false,
                "is_donated": false,
                "is_friendly": false
            },
            "qualified": true,
            "isGoodForWorking": false
        },
        {
            "id": "78ff34f0-356f-42de-8f6f-76f9d1376337",
            "name": "\u5496\u5561\u610f\u5fd7",
            "score": 0,
            "latitude": 24.176018,
            "longitude": 120.642596,
            "type": "normal",
            "attr": {
                "is_starred": false,
                "is_donated": false,
                "is_friendly": false
            },
            "qualified": true,
            "isGoodForWorking": false
        },
        {
            "id": "7a7cda58-2c69-4dc7-9d05-48184aace615",
            "name": "TORAtart",
            "score": 17,
            "latitude": 24.1492537,
            "longitude": 120.6738669,
            "type": "normal",
            "attr": {
                "is_starred": false,
                "is_donated": false,
                "is_friendly": false
            },
            "qualified": true,
            "isGoodForWorking": false
        },
        {
            "id": "7b79f52f-39f4-45ed-82a5-0582a9f784da",
            "name": "\u9752\u5ddd\u6d41",
            "score": 0,
            "latitude": 24.2693714,
            "longitude": 120.5760584,
            "type": "normal",
            "attr": {
                "is_starred": false,
                "is_donated": false,
                "is_friendly": false
            },
            "qualified": true,
            "isGoodForWorking": false
        },
        {
            "id": "7baeae5f-c9ca-4bf8-9175-b3a6bb3416d7",
            "name": "Belle Journ\u00e9e\u8c9d\u7235\u59ae\u6cd5\u5f0f\u9ede\u5fc3\u574a",
            "score": 0,
            "latitude": 24.155119,
            "longitude": 120.657793,
            "type": "normal",
            "attr": {
                "is_starred": false,
                "is_donated": false,
                "is_friendly": false
            },
            "qualified": true,
            "isGoodForWorking": false
        },
        {
            "id": "7c244255-357e-4090-9f6e-1f27cd860674",
            "name": "\u6f84\u77f3\u5496\u5561\u852c\u98df\u5eda\u574a",
            "score": 20,
            "latitude": 24.152519,
            "longitude": 120.6530211,
            "type": "normal",
            "attr": {
                "is_starred": false,
                "is_donated": false,
                "is_friendly": false
            },
            "qualified": true,
            "isGoodForWorking": false
        },
        {
            "id": "7c9233e2-ef95-40bb-a9ab-d3ff5572418c",
            "name": "Caf\u00e9 de Allur\u00e9 \u85be\u9e93\u5496\u5561",
            "score": 0,
            "latitude": 24.17436,
            "longitude": 120.668331,
            "type": "normal",
            "attr": {
                "is_starred": false,
                "is_donated": false,
                "is_friendly": false
            },
            "qualified": true,
            "isGoodForWorking": false
        },
        {
            "id": "7e88acda-a731-4c5f-9806-45c6aaeb0438",
            "name": "\u6f2b\u68ee\u6797\u5496\u5561",
            "score": 0,
            "latitude": 24.174101,
            "longitude": 120.6677698,
            "type": "normal",
            "attr": {
                "is_starred": false,
                "is_donated": false,
                "is_friendly": false
            },
            "qualified": true,
            "isGoodForWorking": false
        },
        {
            "id": "7f8cb1b4-bdb6-49b7-9639-8e16e9e9ce94",
            "name": "\u5f7c\u601d\u5496\u5561",
            "score": 27,
            "latitude": 24.120219,
            "longitude": 120.6539787,
            "type": "normal",
            "attr": {
                "is_starred": false,
                "is_donated": false,
                "is_friendly": false
            },
            "qualified": true,
            "isGoodForWorking": false
        },
        {
            "id": "8019f58a-f53b-4e82-b4c2-6db8380a015a",
            "name": "\u4f86\u798f\u597d\u4e8b LAUGH HOUSE",
            "score": 25,
            "latitude": 24.1525878,
            "longitude": 120.6609541,
            "type": "normal",
            "attr": {
                "is_starred": false,
                "is_donated": false,
                "is_friendly": false
            },
            "qualified": true,
            "isGoodForWorking": true
        },
        {
            "id": "8161daac-14ad-4e33-b2a6-efee2a7cb230",
            "name": "\u7da0\u84cb\u8336\u9928 - \u6cb3\u5357\u5e97",
            "score": 18,
            "latitude": 24.1750382,
            "longitude": 120.6488705,
            "type": "normal",
            "attr": {
                "is_starred": false,
                "is_donated": false,
                "is_friendly": false
            },
            "qualified": true,
            "isGoodForWorking": false
        },
        {
            "id": "8371e455-585c-40b7-b5b7-8d9adc488df2",
            "name": "\u8def\u6613\u838e\u5496\u5561",
            "score": 0,
            "latitude": 24.1589141,
            "longitude": 120.6801074,
            "type": "normal",
            "attr": {
                "is_starred": false,
                "is_donated": false,
                "is_friendly": false
            },
            "qualified": true,
            "isGoodForWorking": false
        },
        {
            "id": "840987b6-3041-4451-9c0d-d5d4e540c439",
            "name": "Platform 13\u865f\u6708\u53f0",
            "score": 30,
            "latitude": 24.138142,
            "longitude": 120.651543,
            "type": "normal",
            "attr": {
                "is_starred": false,
                "is_donated": false,
                "is_friendly": false
            },
            "qualified": true,
            "isGoodForWorking": true
        },
        {
            "id": "846e5135-5657-444b-b7cf-3362ae95bcf5",
            "name": "\u8001\u9673\u5496\u5561L'espace caf'e",
            "score": 0,
            "latitude": 24.135244,
            "longitude": 120.663504,
            "type": "normal",
            "attr": {
                "is_starred": false,
                "is_donated": false,
                "is_friendly": false
            },
            "qualified": true,
            "isGoodForWorking": false
        },
        {
            "id": "85a7665f-96d1-4e8e-9252-692eff5822b0",
            "name": "\u591a\u99ac\u5496\u5561\u5927\u5751\u5e97",
            "score": 26,
            "latitude": 24.1793741,
            "longitude": 120.740178,
            "type": "normal",
            "attr": {
                "is_starred": false,
                "is_donated": false,
                "is_friendly": false
            },
            "qualified": true,
            "isGoodForWorking": false
        },
        {
            "id": "8748776e-e5e8-4f7e-b05f-6007d6002d4c",
            "name": "Our caf\u00e9 \u5967\u5152\u5496\u5561",
            "score": 30,
            "latitude": 24.163911,
            "longitude": 120.6605154,
            "type": "normal",
            "attr": {
                "is_starred": false,
                "is_donated": false,
                "is_friendly": false
            },
            "qualified": true,
            "isGoodForWorking": true
        },
        {
            "id": "87a3c048-5a9a-4f25-972f-dc65c8503b3a",
            "name": "\u5c0f\u5e78\u798f\u5496\u5561",
            "score": 22,
            "latitude": 24.2348574,
            "longitude": 120.700354,
            "type": "normal",
            "attr": {
                "is_starred": false,
                "is_donated": false,
                "is_friendly": false
            },
            "qualified": true,
            "isGoodForWorking": false
        },
        {
            "id": "87c33496-72b8-4766-a70f-ed61af81829a",
            "name": "\u6c83\u5496\u5561",
            "score": 29.5,
            "latitude": 24.1636964,
            "longitude": 120.6625684,
            "type": "normal",
            "attr": {
                "is_starred": false,
                "is_donated": false,
                "is_friendly": false
            },
            "qualified": true,
            "isGoodForWorking": true
        },
        {
            "id": "8b663d07-f1da-4de1-a4ac-d33caf7a5c14",
            "name": "\u96f2\u9053\u5496\u5561_\u672b\u5ee3\u9580\u5e02",
            "score": 23,
            "latitude": 24.2513233,
            "longitude": 120.7228708,
            "type": "normal",
            "attr": {
                "is_starred": false,
                "is_donated": false,
                "is_friendly": false
            },
            "qualified": true,
            "isGoodForWorking": false
        },
        {
            "id": "8b726b48-7c20-4167-b643-ea1d801902c1",
            "name": "Raven Coffee",
            "score": 30,
            "latitude": 24.172122,
            "longitude": 120.6480497,
            "type": "normal",
            "attr": {
                "is_starred": false,
                "is_donated": false,
                "is_friendly": false
            },
            "qualified": true,
            "isGoodForWorking": true
        },
        {
            "id": "8d694e1f-e28f-4c7a-9551-0aafdc7a6a20",
            "name": "\u5496\u5561\u8449",
            "score": 24,
            "latitude": 24.2490413,
            "longitude": 120.7120745,
            "type": "normal",
            "attr": {
                "is_starred": false,
                "is_donated": false,
                "is_friendly": false
            },
            "qualified": true,
            "isGoodForWorking": true
        },
        {
            "id": "8daa3bb6-5901-4404-a56d-8548beb64441",
            "name": "Coffee Stopover",
            "score": 29,
            "latitude": 24.147994,
            "longitude": 120.668008,
            "type": "normal",
            "attr": {
                "is_starred": false,
                "is_donated": false,
                "is_friendly": false
            },
            "qualified": true,
            "isGoodForWorking": true
        },
        {
            "id": "8db7e929-b519-4b2e-823d-205a8e6f1061",
            "name": "\u5df4\u83f2\u7279\u5496\u5561\u9928",
            "score": 0,
            "latitude": 24.2710475,
            "longitude": 120.5584036,
            "type": "normal",
            "attr": {
                "is_starred": false,
                "is_donated": false,
                "is_friendly": false
            },
            "qualified": true,
            "isGoodForWorking": false
        },
        {
            "id": "8dea5bf1-a80c-4294-91fe-4970562ad0ad",
            "name": " Yorimichi \u9806\u9053\u83d3\u5b50\u5e97",
            "score": 27,
            "latitude": 24.2682245,
            "longitude": 120.5724168,
            "type": "normal",
            "attr": {
                "is_starred": false,
                "is_donated": false,
                "is_friendly": false
            },
            "qualified": true,
            "isGoodForWorking": false
        },
        {
            "id": "8eeded2a-69e5-4785-8fe9-f5a878dec8e9",
            "name": "Come.in.\u9032\u4f86\u3002\u5750 Hair salon & caf\u2019e",
            "score": 0,
            "latitude": 24.252632,
            "longitude": 120.727312,
            "type": "normal",
            "attr": {
                "is_starred": false,
                "is_donated": false,
                "is_friendly": false
            },
            "qualified": true,
            "isGoodForWorking": false
        },
        {
            "id": "8ff1d2b7-548b-40fb-bf77-2adfd0cab54a",
            "name": "\u9edd\u8108\u5496\u5561",
            "score": 29.5,
            "latitude": 24.1434901,
            "longitude": 120.6796195,
            "type": "normal",
            "attr": {
                "is_starred": false,
                "is_donated": false,
                "is_friendly": false
            },
            "qualified": true,
            "isGoodForWorking": true
        },
        {
            "id": "91024fbc-7bfd-4953-a504-caa0f0ba97ea",
            "name": "Cameza",
            "score": 0,
            "latitude": 24.1388136,
            "longitude": 120.6595717,
            "type": "normal",
            "attr": {
                "is_starred": false,
                "is_donated": false,
                "is_friendly": false
            },
            "qualified": true,
            "isGoodForWorking": false
        },
        {
            "id": "917499aa-73eb-4c16-80e3-1accb8d11b22",
            "name": "Cafe Buddha \u4f48\u9054\u5496\u5561",
            "score": 22.5,
            "latitude": 24.1767196,
            "longitude": 120.6454698,
            "type": "normal",
            "attr": {
                "is_starred": false,
                "is_donated": false,
                "is_friendly": false
            },
            "qualified": true,
            "isGoodForWorking": true
        },
        {
            "id": "91802aa9-fcfc-4442-9760-1d87af237932",
            "name": "\u5561\u6587\u5b78-\u5927\u82f1\u5e97",
            "score": 26.5,
            "latitude": 24.1522594,
            "longitude": 120.6487895,
            "type": "normal",
            "attr": {
                "is_starred": false,
                "is_donated": false,
                "is_friendly": false
            },
            "qualified": true,
            "isGoodForWorking": true
        },
        {
            "id": "91a2a83f-14d4-437b-ad81-824b0d0bd6a6",
            "name": "\u83ab\u723e\u70d8\u7119",
            "score": 28,
            "latitude": 24.1669073,
            "longitude": 120.6759927,
            "type": "normal",
            "attr": {
                "is_starred": false,
                "is_donated": false,
                "is_friendly": false
            },
            "qualified": true,
            "isGoodForWorking": false
        },
        {
            "id": "92c267f0-f136-4cd6-97ea-cd31a9bea80c",
            "name": "G.T. \u89e3\u6182\u5496\u5561\u9928",
            "score": 0,
            "latitude": 24.2791516,
            "longitude": 120.5703367,
            "type": "normal",
            "attr": {
                "is_starred": false,
                "is_donated": false,
                "is_friendly": false
            },
            "qualified": true,
            "isGoodForWorking": false
        },
        {
            "id": "92e44723-943a-431a-8e2b-3a6eddd1fe98",
            "name": "11\u53f7\u5009\u5eab",
            "score": 30,
            "latitude": 24.1630689,
            "longitude": 120.6780464,
            "type": "normal",
            "attr": {
                "is_starred": false,
                "is_donated": false,
                "is_friendly": false
            },
            "qualified": true,
            "isGoodForWorking": false
        },
        {
            "id": "930a14a2-7173-4174-8df9-740502a96676",
            "name": "\u864e\u59d1\u5a46\u70d8\u7119\u574a",
            "score": 27,
            "latitude": 24.1199036,
            "longitude": 120.6805417,
            "type": "normal",
            "attr": {
                "is_starred": false,
                "is_donated": false,
                "is_friendly": false
            },
            "qualified": true,
            "isGoodForWorking": false
        },
        {
            "id": "932ffe1f-2e36-4b4e-874d-06c41447c6c2",
            "name": "Coffee The Hammer",
            "score": 0,
            "latitude": 24.1411656,
            "longitude": 120.6808225,
            "type": "normal",
            "attr": {
                "is_starred": false,
                "is_donated": false,
                "is_friendly": false
            },
            "qualified": true,
            "isGoodForWorking": false
        },
        {
            "id": "93a4ead8-e95a-4876-b0c2-48e6bee62d77",
            "name": "136 Caf\u00e9 Terry",
            "score": 23,
            "latitude": 24.1515348,
            "longitude": 120.6487309,
            "type": "normal",
            "attr": {
                "is_starred": false,
                "is_donated": false,
                "is_friendly": false
            },
            "qualified": true,
            "isGoodForWorking": false
        },
        {
            "id": "93bb9393-f0ef-4722-86d5-76a6d0a0658f",
            "name": "Cafe Hello",
            "score": 28,
            "latitude": 24.141344,
            "longitude": 120.648764,
            "type": "normal",
            "attr": {
                "is_starred": false,
                "is_donated": false,
                "is_friendly": false
            },
            "qualified": true,
            "isGoodForWorking": true
        },
        {
            "id": "9575da0a-378c-4a66-950b-52dbc5e1e04c",
            "name": "\u746a\u767b\u5e03\u9b6f Bluesomeone's Vegan Cafe'",
            "score": 28,
            "latitude": 24.1364089,
            "longitude": 120.6809538,
            "type": "normal",
            "attr": {
                "is_starred": false,
                "is_donated": false,
                "is_friendly": false
            },
            "qualified": true,
            "isGoodForWorking": false
        },
        {
            "id": "99d38377-8e05-4d3c-9860-b7705ccfe115",
            "name": "MITAKA 3e cafe",
            "score": 14,
            "latitude": 24.219267,
            "longitude": 120.589917,
            "type": "normal",
            "attr": {
                "is_starred": false,
                "is_donated": false,
                "is_friendly": false
            },
            "qualified": true,
            "isGoodForWorking": false
        },
        {
            "id": "99f1d2a4-5f44-44c2-8e6b-8c371414eddd",
            "name": "\u6c99\u9e7f\u2022Kp cafe \u5496\u5561\u5c08\u9580\u5e97",
            "score": 27,
            "latitude": 24.2234081,
            "longitude": 120.5774444,
            "type": "normal",
            "attr": {
                "is_starred": false,
                "is_donated": false,
                "is_friendly": false
            },
            "qualified": true,
            "isGoodForWorking": false
        },
        {
            "id": "9a188ebf-cabc-4fd8-8666-690351a9e9eb",
            "name": "\u9ed8\u5951\u5496\u5561",
            "score": 26.5,
            "latitude": 24.161625,
            "longitude": 120.652043,
            "type": "normal",
            "attr": {
                "is_starred": false,
                "is_donated": false,
                "is_friendly": false
            },
            "qualified": true,
            "isGoodForWorking": true
        },
        {
            "id": "9a70b6a0-8453-46e4-976d-2195fb3f095b",
            "name": "Fleet Street",
            "score": 27,
            "latitude": 24.137696,
            "longitude": 120.681925,
            "type": "normal",
            "attr": {
                "is_starred": false,
                "is_donated": false,
                "is_friendly": false
            },
            "qualified": true,
            "isGoodForWorking": true
        },
        {
            "id": "9ad4acaa-474f-40bd-a362-94b6179ed9db",
            "name": "Rice Caff'e \u7c73\u5496\u5561",
            "score": 28,
            "latitude": 24.157342,
            "longitude": 120.655814,
            "type": "normal",
            "attr": {
                "is_starred": false,
                "is_donated": false,
                "is_friendly": false
            },
            "qualified": true,
            "isGoodForWorking": true
        },
        {
            "id": "9b303394-6efa-4679-8bb1-8fe08211baac",
            "name": "Smohouse \u601d\u9ed8\u597d\u6642",
            "score": 27,
            "latitude": 24.1427191,
            "longitude": 120.6494171,
            "type": "normal",
            "attr": {
                "is_starred": false,
                "is_donated": false,
                "is_friendly": false
            },
            "qualified": true,
            "isGoodForWorking": true
        },
        {
            "id": "9ca332ed-7609-4fd2-9dee-f934191d971c",
            "name": "\u5361\u5561\u90a3 CAFFAINA \u60e0\u4f86\u5e97",
            "score": 19.5,
            "latitude": 24.1556927,
            "longitude": 120.6412079,
            "type": "normal",
            "attr": {
                "is_starred": false,
                "is_donated": false,
                "is_friendly": false
            },
            "qualified": true,
            "isGoodForWorking": false
        },
        {
            "id": "9efb96ac-cbfc-4c3c-a56f-c895c7e6fc56",
            "name": "13\u83d3\u5b50\u7530-13\u5496\u5561\u5427",
            "score": 0,
            "latitude": 24.2680479,
            "longitude": 120.5983683,
            "type": "normal",
            "attr": {
                "is_starred": false,
                "is_donated": false,
                "is_friendly": false
            },
            "qualified": true,
            "isGoodForWorking": false
        },
        {
            "id": "a1eeac78-b671-43ad-b746-6c6fddbba0fc",
            "name": "Forro Cafe",
            "score": 26.5,
            "latitude": 24.1557996,
            "longitude": 120.6582728,
            "type": "normal",
            "attr": {
                "is_starred": false,
                "is_donated": false,
                "is_friendly": false
            },
            "qualified": true,
            "isGoodForWorking": true
        },
        {
            "id": "a2ce3c3a-7766-435d-9c20-e3f6b2005be9",
            "name": "\u9ed1\u8c93\u6708\u4eae\u5496\u5561\u9928",
            "score": 29,
            "latitude": 24.162092,
            "longitude": 120.634101,
            "type": "normal",
            "attr": {
                "is_starred": false,
                "is_donated": false,
                "is_friendly": false
            },
            "qualified": true,
            "isGoodForWorking": true
        },
        {
            "id": "a2dca6f2-30e0-44cd-b1d1-114bf86a9b1f",
            "name": "\u6c90cafe",
            "score": 0,
            "latitude": 24.1204479,
            "longitude": 120.6712708,
            "type": "normal",
            "attr": {
                "is_starred": false,
                "is_donated": false,
                "is_friendly": false
            },
            "qualified": true,
            "isGoodForWorking": false
        },